[
  {
    "id": "node/745192734",
    "name_en": "Museum of National Architecture and Urban Life",
    "name_ru": "Ձիթողցոնց տուն-թանգարան",
    "name": "Ձիթողցոնց տուն-թանգարան",
    "lat": 40.7813242,
    "lon": 43.8455645,
    "category": "sight",
    "tags": {
      "addr:city": "Գյումրի",
      "addr:country": "AM",
      "addr:housenumber": "47",
      "addr:postcode": "3104",
      "addr:street": "Հաղթանակի պողոտա",
      "historic": "museum",
      "name": "Ձիթողցոնց տուն-թանգարան",
      "name:de": "Museum für Volksarchitektur und Stadtleben",
      "name:en": "Museum of National Architecture and Urban Life",
      "opening_hours": "Tu-Su 11:00-17:00",
      "phone": "+374 312 59327",
      "tourism": "museum",
      "wikidata": "Q16388907",
      "wikipedia": "hy:Ձիթողցոնց տուն-թանգարան"
    },
    "source": "openstreetmap",
    "image_url": "https://upload.wikimedia.org/wikipedia/commons/thumb/f/f0/Dzitoghtsonts1.JPG/960px-Dzitoghtsonts1.JPG"
  },
  {
    "id": "node/1362152472",
    "name_en": "Cherkezi Dzor",
    "name_ru": "Չերքեզի ձոր",
    "name": "Չերքեզի ձոր",
    "lat": 40.7975849,
    "lon": 43.8278936,
    "category": "food",
    "tags": {
      "addr:city": "Գյումրի",
      "addr:country": "AM",
      "alt_name": "Ձկան ձոր",
      "amenity": "restaurant",
      "contact:email": "red-fort@mail.ru",
      "cuisine": "fish",
      "int_name": "Fisth Canyon",
      "internet_access": "no",
      "name": "Չերքեզի ձոր",
      "name:en": "Cherkezi Dzor",
      "name:hy": "Չերկեզի ձոր",
      "operator": "caucasian",
      "outdoor_seating": "yes",
      "phone": "+374 312 65559",
      "phone2": "099 01 15 20",
      "smoking": "yes",
      "website": "http://www.gyumrifish.am"
    },
    "source": "openstreetmap",
    "image_url": null
  },
  {
    "id": "node/1415957933",
    "name_en": "King Ashot Voghormats",
    "name_ru": "Король Ашот",
    "name": "Աշոտ Ողորմած թագավոր",
    "lat": 40.7873429,
    "lon": 43.846744,
    "category": "historic_architecture",
    "tags": {
      "historic": "memorial",
      "name": "Աշոտ Ողորմած թագավոր",
      "name:en": "King Ashot Voghormats",
      "name:ru": "Король Ашот"
    },
    "source": "openstreetmap",
    "image_url": null
  },
  {
    "id": "node/1415957939",
    "name_en": "Millenium",
    "name_ru": "Millenium",
    "name": "Millenium",
    "lat": 40.7934501,
    "lon": 43.846774,
    "category": "food",
    "tags": {
      "amenity": "restaurant",
      "cuisine": "regional",
      "name": "Millenium"
    },
    "source": "openstreetmap",
    "image_url": null
  },
  {
    "id": "node/1415958734",
    "name_en": "Andranik",
    "name_ru": "Անդրանիկ",
    "name": "Անդրանիկ",
    "lat": 40.7810419,
    "lon": 43.8446034,
    "category": "historic_architecture",
    "tags": {
      "historic": "monument",
      "name": "Անդրանիկ",
      "name:en": "Andranik",
      "name:hy": "Անդրանիկ"
    },
    "source": "openstreetmap",
    "image_url": null
  },
  {
    "id": "node/1415969663",
    "name_en": "Mother Armenia",
    "name_ru": "Мать Армения",
    "name": "Մայր Հայաստան",
    "lat": 40.7805049,
    "lon": 43.8246909,
    "category": "historic_architecture",
    "tags": {
      "artwork_type": "statue",
      "historic": "monument",
      "name": "Մայր Հայաստան",
      "name:en": "Mother Armenia",
      "name:hy": "Մայր Հայաստան",
      "name:pl": "Matka Armenia",
      "name:ru": "Мать Армения",
      "tourism": "artwork",
      "wikidata": "Q18128210",
      "wikimedia_commons": "File:Statue_of_Mother_Armenia,_Gyumri,_(panoramio_26).jpg",
      "wikipedia": "en:Mother Armenia, Gyumri"
    },
    "source": "openstreetmap",
    "image_url": "https://upload.wikimedia.org/wikipedia/commons/0/00/Statue_of_Mother_Armenia%2C_Gyumri%2C_%28panoramio_26%29.jpg"
  },
  {
    "id": "node/1422705238",
    "name_en": "Unknown",
    "name_ru": "Unknown",
    "name": "Unknown",
    "lat": 40.7825519,
    "lon": 43.8354187,
    "category": "sight",
    "tags": {
      "tourism": "viewpoint"
    },
    "source": "openstreetmap",
    "image_url": null
  },
  {
    "id": "node/1422705243",
    "name_en": "Oasis",
    "name_ru": "Oasis",
    "name": "Oasis",
    "lat": 40.7851272,
    "lon": 43.8355805,
    "category": "food",
    "tags": {
      "amenity": "restaurant",
      "name": "Oasis"
    },
    "source": "openstreetmap",
    "image_url": null
  },
  {
    "id": "node/1422710087",
    "name_en": "Vardan Mamikonian",
    "name_ru": "Վարդան Մամիկոնյան",
    "name": "Վարդան Մամիկոնյան",
    "lat": 40.7852865,
    "lon": 43.8415475,
    "category": "historic_architecture",
    "tags": {
      "historic": "memorial",
      "image": "https://i.imgur.com/m5wn3hf.jpg",
      "name": "Վարդան Մամիկոնյան",
      "name:en": "Vardan Mamikonian",
      "name:hy": "Վարդան Մամիկոնյան"
    },
    "source": "openstreetmap",
    "image_url": "https://i.imgur.com/m5wn3hf.jpg"
  },
  {
    "id": "node/1423079448",
    "name_en": "1988 Earthquake Memorial",
    "name_ru": "Мемориальный комплекс памяти жертв землетрясения 1988 года",
    "name": "Мемориальный комплекс памяти жертв землетрясения 1988 года",
    "lat": 40.7838001,
    "lon": 43.8412031,
    "category": "historic_architecture",
    "tags": {
      "historic": "memorial",
      "image": "https://i.imgur.com/6rrMnmJ.jpg",
      "name": "Мемориальный комплекс памяти жертв землетрясения 1988 года",
      "name:en": "1988 Earthquake Memorial",
      "name:ru": "Мемориальный комплекс памяти жертв землетрясения 1988 года"
    },
    "source": "openstreetmap",
    "image_url": "https://i.imgur.com/6rrMnmJ.jpg"
  },
  {
    "id": "node/1423103598",
    "name_en": "Anania Shirakatsi",
    "name_ru": "Anania Shirakatsi",
    "name": "Anania Shirakatsi",
    "lat": 40.7935653,
    "lon": 43.835286,
    "category": "historic_architecture",
    "tags": {
      "historic": "memorial",
      "memorial": "statue",
      "name": "Anania Shirakatsi"
    },
    "source": "openstreetmap",
    "image_url": null
  },
  {
    "id": "node/1427181486",
    "name_en": "Garegin Njdeh",
    "name_ru": "Գարեգին Նժդեհ",
    "name": "Գարեգին Նժդեհ",
    "lat": 40.7788928,
    "lon": 43.8561024,
    "category": "historic_architecture",
    "tags": {
      "historic": "memorial",
      "name": "Գարեգին Նժդեհ",
      "name:en": "Garegin Njdeh",
      "name:hy": "Գարեգին Նժդեհ"
    },
    "source": "openstreetmap",
    "image_url": null
  },
  {
    "id": "node/1843882287",
    "name_en": "\"Tigran Mets\"",
    "name_ru": "Տիգրան Մեծ",
    "name": "Տիգրան Մեծ",
    "lat": 40.7803695,
    "lon": 43.8540997,
    "category": "food",
    "tags": {
      "addr:street": "Տերյան փողոց",
      "amenity": "restaurant",
      "cuisine": "regional",
      "name": "Տիգրան Մեծ",
      "name:en": "\"Tigran Mets\""
    },
    "source": "openstreetmap",
    "image_url": null
  },
  {
    "id": "node/2398185494",
    "name_en": "Slavyanskiy Dvor",
    "name_ru": "Славянский двор",
    "name": "Славянский двор",
    "lat": 40.7851228,
    "lon": 43.8408888,
    "category": "food",
    "tags": {
      "amenity": "restaurant",
      "cuisine": "russian",
      "internet_access": "no",
      "name": "Славянский двор",
      "name:en": "Slavyanskiy Dvor",
      "name:ru": "Славянский двор",
      "outdoor_seating": "yes",
      "smoking": "yes"
    },
    "source": "openstreetmap",
    "image_url": null
  },
  {
    "id": "node/2504857930",
    "name_en": "Unknown",
    "name_ru": "Unknown",
    "name": "Unknown",
    "lat": 40.7790348,
    "lon": 43.8368518,
    "category": "historic_architecture",
    "tags": {
      "historic": "memorial",
      "inscription:de": "Hier ruhen kriegsgefangene - opfer des Zweiten Weltkrieges",
      "inscription:ru": "Здесь покоятся военнопленные - жертвы Второй мировой войны",
      "memorial": "cross",
      "memorial:conflict": "WW2",
      "war_memorial": "yes"
    },
    "source": "openstreetmap",
    "image_url": null
  },
  {
    "id": "node/2957860709",
    "name_en": "Բիստրո",
    "name_ru": "Բիստրո",
    "name": "Բիստրո",
    "lat": 40.8048228,
    "lon": 43.8659533,
    "category": "food",
    "tags": {
      "addr:city": "Գյումրի",
      "addr:country": "AM",
      "addr:housenumber": "6/13",
      "addr:street": "Խրիմյան Հայրիկ խճուղի",
      "amenity": "restaurant",
      "name": "Բիստրո",
      "phone": "+(374)312-3-83-83"
    },
    "source": "openstreetmap",
    "image_url": null
  },
  {
    "id": "node/3222853653",
    "name_en": "\"Vanatur\" Restaurant",
    "name_ru": "\"Ванатур\"",
    "name": "Վանատուր",
    "lat": 40.7867773,
    "lon": 43.85001,
    "category": "food",
    "tags": {
      "amenity": "restaurant",
      "name": "Վանատուր",
      "name:en": "\"Vanatur\" Restaurant",
      "name:hy": "Վանատուր",
      "name:ru": "\"Ванатур\"",
      "phone": "+374 312 5 07 14, +374 312 5 01 92"
    },
    "source": "openstreetmap",
    "image_url": null
  },
  {
    "id": "node/3686020715",
    "name_en": "Sheram",
    "name_ru": "ԳՈՒՍԱՆԻՆ",
    "name": "ԳՈՒՍԱՆԻՆ",
    "lat": 40.7863861,
    "lon": 43.837889,
    "category": "historic_architecture",
    "tags": {
      "historic": "monument",
      "name": "ԳՈՒՍԱՆԻՆ",
      "name:en": "Sheram"
    },
    "source": "openstreetmap",
    "image_url": null
  },
  {
    "id": "node/3689832992",
    "name_en": "Sayat-Nova Monument",
    "name_ru": "Памятник \"Саят-Нова\"",
    "name": "Սայաթ-Նովա",
    "lat": 40.7882912,
    "lon": 43.8459281,
    "category": "historic_architecture",
    "tags": {
      "historic": "monument",
      "memorial": "statue",
      "name": "Սայաթ-Նովա",
      "name:en": "Sayat-Nova Monument",
      "name:hy": "Սայաթ-Նովա",
      "name:ru": "Памятник \"Саят-Нова\""
    },
    "source": "openstreetmap",
    "image_url": null
  },
  {
    "id": "node/3707579025",
    "name_en": "\"Troya\"",
    "name_ru": "Ресторан Троя",
    "name": "Տրոյա",
    "lat": 40.7765731,
    "lon": 43.8428075,
    "category": "food",
    "tags": {
      "amenity": "restaurant",
      "name": "Տրոյա",
      "name:en": "\"Troya\"",
      "name:ru": "Ресторан Троя"
    },
    "source": "openstreetmap",
    "image_url": null
  },
  {
    "id": "node/4281611174",
    "name_en": "\"Kilikia\" Bistro",
    "name_ru": "\"Kilikia\" Bistro",
    "name": "\"Kilikia\" Bistro",
    "lat": 40.7955986,
    "lon": 43.8464925,
    "category": "food",
    "tags": {
      "addr:city": "Գյումրի",
      "addr:country": "AM",
      "addr:housenumber": "22",
      "addr:street": "Գարեգին Նժդեհ",
      "amenity": "fast_food",
      "name": "\"Kilikia\" Bistro",
      "opening_hours": "Mo-Su 10:00-23:00",
      "phone": "+374 312 4 88 78"
    },
    "source": "openstreetmap",
    "image_url": null
  },
  {
    "id": "node/4292821790",
    "name_en": "\"Polos Mukuch\"",
    "name_ru": "\"Polos Mukuch\"",
    "name": "\"Polos Mukuch\"",
    "lat": 40.788058,
    "lon": 43.8383658,
    "category": "food",
    "tags": {
      "addr:city": "Գյումրի",
      "addr:country": "AM",
      "addr:housenumber": "75",
      "addr:street": "Ջիվան փողոց",
      "amenity": "restaurant",
      "cuisine": "regional",
      "name": "\"Polos Mukuch\""
    },
    "source": "openstreetmap",
    "image_url": null
  },
  {
    "id": "node/4401556389",
    "name_en": "Veranda Home",
    "name_ru": "Veranda Home",
    "name": "Unknown",
    "lat": 40.7914199,
    "lon": 43.84566,
    "category": "food",
    "tags": {
      "addr:housenumber": "2/2",
      "amenity": "cafe",
      "cuisine": "pizza;ice_cream;cake;coffee_shop;international;local",
      "internet_access": "wlan",
      "name:en": "Veranda Home",
      "name:ru": "Veranda Home",
      "opening_hours": "Mo-Su 10:00-23:00",
      "phone": "+37460730503"
    },
    "source": "openstreetmap",
    "image_url": null
  },
  {
    "id": "node/4476654689",
    "name_en": "Charles Aznavour",
    "name_ru": "Шарль Азнавур",
    "name": "Շարլ Ազնավուր",
    "lat": 40.8065038,
    "lon": 43.8481505,
    "category": "historic_architecture",
    "tags": {
      "historic": "monument",
      "name": "Շարլ Ազնավուր",
      "name:en": "Charles Aznavour",
      "name:fr": "Charles Aznavour",
      "name:ru": "Шарль Азнавур"
    },
    "source": "openstreetmap",
    "image_url": null
  },
  {
    "id": "node/4601287290",
    "name_en": "Cathedral of the Holy Martyrs, Gyumri",
    "name_ru": "Церковь Святых Великомучеников",
    "name": "Հայ Կաթողիկէ Սրբոց Նահատակաց Աթոռանիստ Եկեղեցի",
    "lat": 40.7817686,
    "lon": 43.8453488,
    "category": "sight",
    "tags": {
      "addr:city": "Գյումրի",
      "addr:country": "AM",
      "addr:street": "Հաղթանակի պողոտա",
      "amenity": "place_of_worship",
      "building": "church",
      "denomination": "armenian_catholic",
      "historic": "church",
      "name": "Հայ Կաթողիկէ Սրբոց Նահատակաց Աթոռանիստ Եկեղեցի",
      "name:en": "Cathedral of the Holy Martyrs, Gyumri",
      "name:pl": "Katedra Świętych Męczenników",
      "name:ru": "Церковь Святых Великомучеников",
      "religion": "christian",
      "tourism": "attraction",
      "wikidata": "Q20902348",
      "wikipedia": "en:Cathedral of the Holy Martyrs, Gyumri"
    },
    "source": "openstreetmap",
    "image_url": "https://upload.wikimedia.org/wikipedia/commons/thumb/9/98/Cathedral_of_the_Holy_Martyrs%2C_Gyumri_2020.jpg/960px-Cathedral_of_the_Holy_Martyrs%2C_Gyumri_2020.jpg"
  },
  {
    "id": "node/4643851992",
    "name_en": "Avetic Isahakyan's Home and Museum",
    "name_ru": "ДОМ-МУЗЕЙ АВЕТИКА ИСААКЯНА",
    "name": "ԱՎԵՏԻՔ ԻՍԱՀԱԿՅԱՆԻ ՏՈՒՆ-ԹԱՆԳԱՐԱՆ",
    "lat": 40.7882933,
    "lon": 43.8432826,
    "category": "sight",
    "tags": {
      "name": "ԱՎԵՏԻՔ ԻՍԱՀԱԿՅԱՆԻ ՏՈՒՆ-ԹԱՆԳԱՐԱՆ",
      "name:en": "Avetic Isahakyan's Home and Museum",
      "name:ru": "ДОМ-МУЗЕЙ АВЕТИКА ИСААКЯНА",
      "opening_hours": "Mo-Su 11:00-16:00",
      "phone": "+374 312 5 72 91",
      "tourism": "museum",
      "wikidata": "Q16370038"
    },
    "source": "openstreetmap",
    "image_url": "https://upload.wikimedia.org/wikipedia/commons/b/be/Avetik_Isahakyan_museum.jpg"
  },
  {
    "id": "node/4643879889",
    "name_en": "Mher Mkrtchyan Home and Museum",
    "name_ru": "Дом-музей Мера Мкртчяна",
    "name": "ՄՀԵՐ ՄԿՐՏՉՅԱՆԻ ԹԱՆԳԱՐԱՆ",
    "lat": 40.7887138,
    "lon": 43.8428176,
    "category": "sight",
    "tags": {
      "name": "ՄՀԵՐ ՄԿՐՏՉՅԱՆԻ ԹԱՆԳԱՐԱՆ",
      "name:en": "Mher Mkrtchyan Home and Museum",
      "name:ru": "Дом-музей Мера Мкртчяна",
      "phone": "+374 312 5 51 74",
      "tourism": "museum",
      "wikidata": "Q16393695"
    },
    "source": "openstreetmap",
    "image_url": "https://upload.wikimedia.org/wikipedia/commons/f/f4/Museum_of_Mher_Mkrtchyan_in_Gyumri.jpg"
  },
  {
    "id": "node/4840263623",
    "name_en": "Central market exchange money",
    "name_ru": "Unknown",
    "name": "Unknown",
    "lat": 40.7805427,
    "lon": 43.8421172,
    "category": "sight",
    "tags": {
      "name:en": "Central market exchange money",
      "tourism": "attraction"
    },
    "source": "openstreetmap",
    "image_url": null
  },
  {
    "id": "node/5139143022",
    "name_en": "Rob's home",
    "name_ru": "Робс хом",
    "name": "Ռոբս հոմ",
    "lat": 40.7938858,
    "lon": 43.8468281,
    "category": "food",
    "tags": {
      "amenity": "cafe",
      "internet_access": "wlan",
      "name": "Ռոբս հոմ",
      "name:en": "Rob's home",
      "name:ru": "Робс хом",
      "operator": "Taron Grigoryan",
      "phone": "+37477198917"
    },
    "source": "openstreetmap",
    "image_url": null
  },
  {
    "id": "node/5183961921",
    "name_en": "Քյալլա",
    "name_ru": "Քյալլա",
    "name": "Քյալլա",
    "lat": 40.7833094,
    "lon": 43.8458985,
    "category": "food",
    "tags": {
      "amenity": "restaurant",
      "name": "Քյալլա"
    },
    "source": "openstreetmap",
    "image_url": null
  },
  {
    "id": "node/5217718421",
    "name_en": "Hatsatun",
    "name_ru": "Hatsatun",
    "name": "Hatsatun",
    "lat": 40.7870316,
    "lon": 43.846118,
    "category": "food",
    "tags": {
      "addr:city": "Գյումրի",
      "addr:country": "AM",
      "addr:street": "Բագրատունյաց հրապարակ",
      "amenity": "restaurant",
      "cuisine": "regional",
      "name": "Hatsatun",
      "outdoor_seating": "yes",
      "takeaway": "yes"
    },
    "source": "openstreetmap",
    "image_url": null
  },
  {
    "id": "node/5217718924",
    "name_en": "Loft",
    "name_ru": "Loft",
    "name": "Loft",
    "lat": 40.7870149,
    "lon": 43.8467512,
    "category": "food",
    "tags": {
      "amenity": "cafe",
      "internet_access": "wlan",
      "name": "Loft"
    },
    "source": "openstreetmap",
    "image_url": null
  },
  {
    "id": "node/5217720002",
    "name_en": "\"Faeton\"",
    "name_ru": "\"Фаэтон\"",
    "name": "Ֆայտոն",
    "lat": 40.7862258,
    "lon": 43.8460579,
    "category": "food",
    "tags": {
      "amenity": "restaurant",
      "cuisine": "regional",
      "name": "Ֆայտոն",
      "name:en": "\"Faeton\"",
      "name:hy": "Ֆայտոն",
      "name:ru": "\"Фаэтон\"",
      "opening_hours": "Mo-Su 10:00-23:45",
      "outdoor_seating": "yes",
      "phone": "+374 98 10 20 10"
    },
    "source": "openstreetmap",
    "image_url": null
  },
  {
    "id": "node/5217720423",
    "name_en": "Cruise",
    "name_ru": "Cruise",
    "name": "Cruise",
    "lat": 40.7871157,
    "lon": 43.8453269,
    "category": "food",
    "tags": {
      "addr:city": "Գյումրի",
      "addr:country": "AM",
      "addr:housenumber": "2",
      "addr:street": "Haghtanaki Ave",
      "amenity": "restaurant",
      "cuisine": "international",
      "diet:vegetarian": "yes",
      "facebook": "https://www.facebook.com/Cruise-%D4%BF%D6%80%D5%B8%D6%82%D5%AB%D5%A6-479920392190304/",
      "internet_access": "wlan",
      "internet_access:fee": "no",
      "name": "Cruise",
      "opening_hours": "Mo-Su 09:00-23:00",
      "phone": "+374 95 50 11 33",
      "power_supply": "yes",
      "socket:schuko": "6"
    },
    "source": "openstreetmap",
    "image_url": null
  },
  {
    "id": "node/5217741027",
    "name_en": "Row of famous figure head statues",
    "name_ru": "Հայդուկների պուրակ",
    "name": "Հայդուկների պուրակ",
    "lat": 40.7810397,
    "lon": 43.8446324,
    "category": "historic_architecture",
    "tags": {
      "historic": "monument",
      "name": "Հայդուկների պուրակ",
      "name:en": "Row of famous figure head statues"
    },
    "source": "openstreetmap",
    "image_url": null
  },
  {
    "id": "node/5217772809",
    "name_en": "Poloz Mukuch",
    "name_ru": "Poloz Mukuch",
    "name": "Poloz Mukuch",
    "lat": 40.7825653,
    "lon": 43.8410263,
    "category": "historic_architecture",
    "tags": {
      "historic": "monument",
      "image": "https://i.imgur.com/t9pg4zg.jpg",
      "name": "Poloz Mukuch"
    },
    "source": "openstreetmap",
    "image_url": "https://i.imgur.com/t9pg4zg.jpg"
  },
  {
    "id": "node/5217781026",
    "name_en": "Khachkar row",
    "name_ru": "Khachkar row",
    "name": "Khachkar row",
    "lat": 40.7831827,
    "lon": 43.8414232,
    "category": "historic_architecture",
    "tags": {
      "historic": "monument",
      "name": "Khachkar row"
    },
    "source": "openstreetmap",
    "image_url": null
  },
  {
    "id": "node/5217799686",
    "name_en": "Balcony from \"Our Childhood Tango\"",
    "name_ru": "Balcony from \"Our Childhood Tango\"",
    "name": "Balcony from \"Our Childhood Tango\"",
    "lat": 40.785375,
    "lon": 43.8368541,
    "category": "sight",
    "tags": {
      "historic": "building",
      "name": "Balcony from \"Our Childhood Tango\"",
      "tourism": "attraction"
    },
    "source": "openstreetmap",
    "image_url": null
  },
  {
    "id": "node/5217809389",
    "name_en": "The Gallery of Mariam and Eranuhi Aslamazyan Sister",
    "name_ru": "Галерея сестёр Асламазян",
    "name": "Ասլամազյան քույրերի պատկերասրահ",
    "lat": 40.7862459,
    "lon": 43.8409543,
    "category": "sight",
    "tags": {
      "addr:city": "Գյումրի",
      "addr:country": "AM",
      "addr:street": "Աբովյան փողոց",
      "email": "info@aslamazyanmuseum.com",
      "name": "Ասլամազյան քույրերի պատկերասրահ",
      "name:en": "The Gallery of Mariam and Eranuhi Aslamazyan Sister",
      "name:ru": "Галерея сестёр Асламазян",
      "opening_hours": "Tu-Sa 10:00-17:00, Su 11:00-16:00",
      "phone": "+374 312 4 82 05",
      "tourism": "museum",
      "website": "http://www.aslamazyanmuseum.com/",
      "wikidata": "Q16369665"
    },
    "source": "openstreetmap",
    "image_url": "https://upload.wikimedia.org/wikipedia/commons/f/f4/The_Gallery_of_Mariam_and_Eranuhi_Aslamazyan_Sisters.jpg"
  },
  {
    "id": "node/5217816751",
    "name_en": "Ponchik Monchik",
    "name_ru": "Պոնչիկ Մոնչիկ",
    "name": "Պոնչիկ Մոնչիկ",
    "lat": 40.78495,
    "lon": 43.8408759,
    "category": "food",
    "tags": {
      "addr:street": "Վարդանանց հրապարակ",
      "amenity": "cafe",
      "cuisine": "regional",
      "name": "Պոնչիկ Մոնչիկ",
      "name:en": "Ponchik Monchik",
      "price": "budget"
    },
    "source": "openstreetmap",
    "image_url": null
  },
  {
    "id": "node/5217819725",
    "name_en": "Herbs and Honey",
    "name_ru": "Herbs and Honey",
    "name": "Herbs and Honey",
    "lat": 40.7863497,
    "lon": 43.8437445,
    "category": "food",
    "tags": {
      "amenity": "restaurant",
      "cuisine": "coffee_shop",
      "indoor_seating": "yes",
      "internet_access": "wlan",
      "internet_access:fee": "no",
      "name": "Herbs and Honey",
      "opening_hours": "Mo-Sa 08:00-23:30; Su 09:00-22:00",
      "outdoor_seating": "yes",
      "phone": "+37477136160",
      "power_supply": "yes",
      "price": "midrange",
      "socket:schuko": "15",
      "website": "https://herbsandhoney.am"
    },
    "source": "openstreetmap",
    "image_url": null
  },
  {
    "id": "node/5217823026",
    "name_en": "Yaghli House",
    "name_ru": "Yaghli House",
    "name": "Yaghli House",
    "lat": 40.7866677,
    "lon": 43.8441362,
    "category": "food",
    "tags": {
      "addr:city": "Գյումրի",
      "addr:country": "AM",
      "addr:housenumber": "6/5",
      "addr:postcode": "3104",
      "addr:street": "Ռիժկովի փողոց",
      "amenity": "cafe",
      "name": "Yaghli House",
      "opening_hours": "Mo-Su 10:00-23:30"
    },
    "source": "openstreetmap",
    "image_url": null
  },
  {
    "id": "node/5217842368",
    "name_en": "Khachkar to Sumgait Victims",
    "name_ru": "Khachkar to Sumgait Victims",
    "name": "Khachkar to Sumgait Victims",
    "lat": 40.7907068,
    "lon": 43.8455967,
    "category": "historic_architecture",
    "tags": {
      "historic": "monument",
      "name": "Khachkar to Sumgait Victims"
    },
    "source": "openstreetmap",
    "image_url": null
  },
  {
    "id": "node/5217843298",
    "name_en": "A. Isahakyan Monument",
    "name_ru": "A. Isahakyan Monument",
    "name": "A. Isahakyan Monument",
    "lat": 40.7882117,
    "lon": 43.8430687,
    "category": "historic_architecture",
    "tags": {
      "historic": "monument",
      "name": "A. Isahakyan Monument"
    },
    "source": "openstreetmap",
    "image_url": null
  },
  {
    "id": "node/5217843365",
    "name_en": "Hovhannes Shiraz Monument",
    "name_ru": "Hovhannes Shiraz Monument",
    "name": "Hovhannes Shiraz Monument",
    "lat": 40.7875526,
    "lon": 43.8429987,
    "category": "historic_architecture",
    "tags": {
      "historic": "monument",
      "name": "Hovhannes Shiraz Monument"
    },
    "source": "openstreetmap",
    "image_url": null
  },
  {
    "id": "node/5217844913",
    "name_en": "Mher Mkrtchyan Monument",
    "name_ru": "Mher Mkrtchyan Monument",
    "name": "Mher Mkrtchyan Monument",
    "lat": 40.7905038,
    "lon": 43.8455216,
    "category": "historic_architecture",
    "tags": {
      "historic": "monument",
      "name": "Mher Mkrtchyan Monument"
    },
    "source": "openstreetmap",
    "image_url": null
  },
  {
    "id": "node/5217850702",
    "name_en": "Shiraz Monument",
    "name_ru": "Shiraz Monument",
    "name": "Shiraz Monument",
    "lat": 40.790983,
    "lon": 43.8457952,
    "category": "historic_architecture",
    "tags": {
      "historic": "monument",
      "name": "Shiraz Monument"
    },
    "source": "openstreetmap",
    "image_url": null
  },
  {
    "id": "node/5217851002",
    "name_en": "Isahakyan Monument",
    "name_ru": "Isahakyan Monument",
    "name": "Isahakyan Monument",
    "lat": 40.7904429,
    "lon": 43.8456933,
    "category": "historic_architecture",
    "tags": {
      "historic": "monument",
      "name": "Isahakyan Monument"
    },
    "source": "openstreetmap",
    "image_url": null
  },
  {
    "id": "node/5217854182",
    "name_en": "Kumayri Archeological Museum",
    "name_ru": "Kumayri Archeological Museum",
    "name": "Kumayri Archeological Museum",
    "lat": 40.7813081,
    "lon": 43.8507198,
    "category": "sight",
    "tags": {
      "historic": "museum",
      "name": "Kumayri Archeological Museum",
      "tourism": "museum"
    },
    "source": "openstreetmap",
    "image_url": null
  },
  {
    "id": "node/5217855897",
    "name_en": "\"Anusharan\"",
    "name_ru": "\"Anusharan\"",
    "name": "\"Anusharan\"",
    "lat": 40.7928125,
    "lon": 43.8479023,
    "category": "food",
    "tags": {
      "amenity": "cafe",
      "cuisine": "coffee_shop",
      "name": "\"Anusharan\""
    },
    "source": "openstreetmap",
    "image_url": null
  },
  {
    "id": "node/5217867200",
    "name_en": "\"Voske Tslik\"",
    "name_ru": "шашлычный двор",
    "name": "\"Voske Tslik\"",
    "lat": 40.7962247,
    "lon": 43.8470223,
    "category": "food",
    "tags": {
      "amenity": "restaurant",
      "contact:phone": "+374 312 5 99 99; +374 98 54 22 22",
      "cuisine": "regional",
      "image": "https://commons.wikimedia.org/wiki/File:Voske_tslik_gyumri_23.12.2025.jpg",
      "name": "\"Voske Tslik\"",
      "name:ru": "шашлычный двор"
    },
    "source": "openstreetmap",
    "image_url": "https://commons.wikimedia.org/wiki/File:Voske_tslik_gyumri_23.12.2025.jpg"
  },
  {
    "id": "node/5300436535",
    "name_en": "Di Napoli",
    "name_ru": "Di Napoli",
    "name": "Di Napoli",
    "lat": 40.8026844,
    "lon": 43.8488066,
    "category": "food",
    "tags": {
      "addr:city": "Գյումրի",
      "addr:country": "AM",
      "addr:housenumber": "1/5",
      "addr:postcode": "3103",
      "addr:street": "Գարեգին Նժդեհի պողոտա",
      "amenity": "restaurant",
      "facebook": "https://www.facebook.com/pages/Di-Napoli-Pizza/129586947122887",
      "image": "https://i.imgur.com/Sq4kDlM.jpg",
      "name": "Di Napoli",
      "opening_hours": "Mo-Su 10:00-23:00",
      "phone": "+374 312 3 55 63, +374 312 3 33 99",
      "website": "https://gcc.am/"
    },
    "source": "openstreetmap",
    "image_url": "https://i.imgur.com/Sq4kDlM.jpg"
  },
  {
    "id": "node/5301991531",
    "name_en": "\"Golden Apricot\" Restaurant",
    "name_ru": "\"Золотой Абрикос\"",
    "name": "Ոսկե Ծիրան",
    "lat": 40.7864773,
    "lon": 43.854494,
    "category": "food",
    "tags": {
      "amenity": "restaurant",
      "name": "Ոսկե Ծիրան",
      "name:en": "\"Golden Apricot\" Restaurant",
      "name:ru": "\"Золотой Абрикос\""
    },
    "source": "openstreetmap",
    "image_url": null
  },
  {
    "id": "node/5302476099",
    "name_en": "Disney",
    "name_ru": "Disney",
    "name": "Disney",
    "lat": 40.7918632,
    "lon": 43.8470245,
    "category": "food",
    "tags": {
      "addr:city": "Գյումրի",
      "addr:country": "AM",
      "addr:housenumber": "6",
      "addr:postcode": "3101",
      "addr:street": "Անկախության հրապարակ",
      "amenity": "cafe",
      "name": "Disney"
    },
    "source": "openstreetmap",
    "image_url": null
  },
  {
    "id": "node/5305385288",
    "name_en": "\"Kalinka\" Cafe",
    "name_ru": "\"Kalinka\" Cafe",
    "name": "\"Kalinka\" Cafe",
    "lat": 40.7867446,
    "lon": 43.8435799,
    "category": "food",
    "tags": {
      "addr:city": "Գյումրի",
      "addr:country": "AM",
      "addr:housenumber": "4",
      "addr:postcode": "3104",
      "addr:street": "Ռիժկովի փողոց",
      "amenity": "cafe",
      "name": "\"Kalinka\" Cafe",
      "price": "midrange"
    },
    "source": "openstreetmap",
    "image_url": null
  },
  {
    "id": "node/5310630206",
    "name_en": "Style Gallery",
    "name_ru": "Style Gallery",
    "name": "Style Gallery",
    "lat": 40.7858043,
    "lon": 43.8403564,
    "category": "sight",
    "tags": {
      "addr:city": "Գյումրի",
      "addr:country": "AM",
      "addr:housenumber": "12",
      "addr:street": "Գայի փողոց",
      "name": "Style Gallery",
      "tourism": "gallery"
    },
    "source": "openstreetmap",
    "image_url": null
  },
  {
    "id": "node/5830709885",
    "name_en": "Coffe Shop",
    "name_ru": "Unknown",
    "name": "Unknown",
    "lat": 40.7872501,
    "lon": 43.844903,
    "category": "food",
    "tags": {
      "amenity": "bar",
      "name:en": "Coffe Shop"
    },
    "source": "openstreetmap",
    "image_url": null
  },
  {
    "id": "node/5991951785",
    "name_en": "MONTECRISTO",
    "name_ru": "Montecristo",
    "name": "Montecristo",
    "lat": 40.8070696,
    "lon": 43.8471081,
    "category": "food",
    "tags": {
      "amenity": "bar",
      "cuisine": "oriental",
      "email": "sevasaroyan6s@mail.ru",
      "internet_access": "wlan",
      "name": "Montecristo",
      "name:en": "MONTECRISTO",
      "opening_hours": "Mo-Su 11:00-23:00",
      "phone": "+37477231319",
      "website": "https://m.facebook.com/Montecristo-%EF%B8%8F-Toscana-1758255667583563/"
    },
    "source": "openstreetmap",
    "image_url": null
  },
  {
    "id": "node/6189906185",
    "name_en": "HAVLABAR TABERN",
    "name_ru": "Хавлабар таверна",
    "name": "Հավլաբար պանդոկ",
    "lat": 40.787161,
    "lon": 43.8452647,
    "category": "food",
    "tags": {
      "addr:city": "Գյումրի",
      "addr:country": "AM",
      "amenity": "restaurant",
      "name": "Հավլաբար պանդոկ",
      "name:en": "HAVLABAR TABERN",
      "name:ru": "Хавлабар таверна"
    },
    "source": "openstreetmap",
    "image_url": null
  },
  {
    "id": "node/6361799213",
    "name_en": "Unknown",
    "name_ru": "Unknown",
    "name": "Unknown",
    "lat": 40.7913418,
    "lon": 43.8404659,
    "category": "food",
    "tags": {
      "amenity": "restaurant"
    },
    "source": "openstreetmap",
    "image_url": null
  },
  {
    "id": "node/6409766287",
    "name_en": "Unknown",
    "name_ru": "Unknown",
    "name": "Unknown",
    "lat": 40.787728,
    "lon": 43.8406871,
    "category": "food",
    "tags": {
      "addr:city": "Գյումրի",
      "addr:country": "AM",
      "addr:street": "Գորկու փողոց",
      "amenity": "restaurant"
    },
    "source": "openstreetmap",
    "image_url": null
  },
  {
    "id": "node/6412065605",
    "name_en": "Ponchik-Monchik",
    "name_ru": "Պոնչիկ-Մոնչիկ",
    "name": "Պոնչիկ-Մոնչիկ",
    "lat": 40.7877645,
    "lon": 43.8453146,
    "category": "food",
    "tags": {
      "addr:city": "Գյումրի",
      "addr:country": "AM",
      "addr:street": "Բագրատունյաց հրապարակ",
      "amenity": "cafe",
      "image": "https://i.imgur.com/aRC9hoT.jpg",
      "name": "Պոնչիկ-Մոնչիկ",
      "name:en": "Ponchik-Monchik"
    },
    "source": "openstreetmap",
    "image_url": "https://i.imgur.com/aRC9hoT.jpg"
  },
  {
    "id": "node/6412121850",
    "name_en": "Tashir Pizza",
    "name_ru": "Ташир Пицца",
    "name": "Տաշիր պիցցա",
    "lat": 40.7919354,
    "lon": 43.8460474,
    "category": "food",
    "tags": {
      "addr:city": "Գյումրի",
      "addr:country": "AM",
      "addr:housenumber": "2",
      "addr:region": "Շիրակի մարզ",
      "addr:street": "Sayat-Novai St",
      "amenity": "restaurant",
      "brand": "Տաշիր պիցցա",
      "brand:en": "Tashir Pizza",
      "brand:hy": "Տաշիր պիցցա",
      "brand:ru": "Ташир Пицца",
      "brand:wikidata": "Q118347431",
      "check_date": "2025-07-18",
      "contact:phone": "+374 031 25 50 05",
      "contact:website": "https://www.tashirpizza.am/",
      "cuisine": "pizza",
      "email": "info@tashirgroup.am",
      "facebook": "https://www.facebook.com/tashirpizza/",
      "image": "https://commons.wikimedia.org/wiki/File:Tashir_pizza_gyumri_18.07.2025.jpg",
      "internet_access": "wlan",
      "internet_access:fee": "no",
      "name": "Տաշիր պիցցա",
      "name:en": "Tashir Pizza",
      "name:hy": "Տաշիր պիցցա",
      "name:ru": "Ташир Пицца",
      "opening_hours": "Mo-Su 09:00-21:00",
      "power_supply": "yes",
      "socket:schuko": "5"
    },
    "source": "openstreetmap",
    "image_url": "https://commons.wikimedia.org/wiki/File:Tashir_pizza_gyumri_18.07.2025.jpg"
  },
  {
    "id": "node/6412134317",
    "name_en": "Florenc",
    "name_ru": "Florenc",
    "name": "Florenc",
    "lat": 40.7877554,
    "lon": 43.8383146,
    "category": "food",
    "tags": {
      "addr:city": "Գյումրի",
      "addr:country": "AM",
      "addr:street": "Գորկու փողոց",
      "amenity": "restaurant",
      "name": "Florenc"
    },
    "source": "openstreetmap",
    "image_url": null
  },
  {
    "id": "node/6412290217",
    "name_en": "Food Time",
    "name_ru": "Food Time",
    "name": "Food Time",
    "lat": 40.787024,
    "lon": 43.8472054,
    "category": "food",
    "tags": {
      "addr:city": "Գյումրի",
      "addr:country": "AM",
      "addr:street": "Գորկու փողոց",
      "amenity": "fast_food",
      "fast_food": "cafeteria",
      "name": "Food Time",
      "opening_hours": "Mo-Su 10:00-23:00",
      "website": "https://foodtime.am/"
    },
    "source": "openstreetmap",
    "image_url": null
  },
  {
    "id": "node/6412415069",
    "name_en": "Unknown",
    "name_ru": "Unknown",
    "name": "Unknown",
    "lat": 40.7846582,
    "lon": 43.8353714,
    "category": "historic_architecture",
    "tags": {
      "historic": "memorial"
    },
    "source": "openstreetmap",
    "image_url": null
  },
  {
    "id": "node/6412415789",
    "name_en": "Stepan Shahumyan",
    "name_ru": "Степану Шаумяну",
    "name": "Ստեփան Շահումյան",
    "lat": 40.7843109,
    "lon": 43.8425624,
    "category": "historic_architecture",
    "tags": {
      "historic": "memorial",
      "material": "stone",
      "memorial": "statue",
      "name": "Ստեփան Շահումյան",
      "name:en": "Stepan Shahumyan",
      "name:hy": "Ստեփան Շահումյան",
      "name:ru": "Степану Шаумяну",
      "subject:wikidata": "Q466144"
    },
    "source": "openstreetmap",
    "image_url": null
  },
  {
    "id": "node/6414460530",
    "name_en": "\"Cascade\"",
    "name_ru": "\"Cascade\"",
    "name": "\"Cascade\"",
    "lat": 40.7966983,
    "lon": 43.8502686,
    "category": "food",
    "tags": {
      "amenity": "cafe",
      "name": "\"Cascade\"",
      "name:en": "\"Cascade\""
    },
    "source": "openstreetmap",
    "image_url": null
  },
  {
    "id": "node/6414553338",
    "name_en": "Kinder",
    "name_ru": "Kinder",
    "name": "Kinder",
    "lat": 40.7801196,
    "lon": 43.8548107,
    "category": "food",
    "tags": {
      "addr:city": "Գյումրի",
      "addr:country": "AM",
      "addr:street": "Տերյան փողոց",
      "amenity": "cafe",
      "name": "Kinder"
    },
    "source": "openstreetmap",
    "image_url": null
  },
  {
    "id": "node/6414554049",
    "name_en": "Karo",
    "name_ru": "Karo",
    "name": "Karo",
    "lat": 40.7782906,
    "lon": 43.8546738,
    "category": "food",
    "tags": {
      "addr:city": "Գյումրի",
      "addr:country": "AM",
      "addr:street": "Երևանյան խճուղի",
      "amenity": "fast_food",
      "name": "Karo"
    },
    "source": "openstreetmap",
    "image_url": null
  },
  {
    "id": "node/6414640623",
    "name_en": "Սողոմոն Թեհլերյան",
    "name_ru": "Սողոմոն Թեհլերյան",
    "name": "Սողոմոն Թեհլերյան",
    "lat": 40.7811812,
    "lon": 43.8446947,
    "category": "historic_architecture",
    "tags": {
      "historic": "monument",
      "name": "Սողոմոն Թեհլերյան"
    },
    "source": "openstreetmap",
    "image_url": null
  },
  {
    "id": "node/6414640624",
    "name_en": "Գևորգ Չաուշ",
    "name_ru": "Գևորգ Չաուշ",
    "name": "Գևորգ Չաուշ",
    "lat": 40.7813051,
    "lon": 43.8447175,
    "category": "historic_architecture",
    "tags": {
      "historic": "monument",
      "name": "Գևորգ Չաուշ"
    },
    "source": "openstreetmap",
    "image_url": null
  },
  {
    "id": "node/6414640625",
    "name_en": "Աղբյուր Սերոբ",
    "name_ru": "Աղբյուր Սերոբ",
    "name": "Աղբյուր Սերոբ",
    "lat": 40.7813396,
    "lon": 43.8447228,
    "category": "historic_architecture",
    "tags": {
      "historic": "monument",
      "name": "Աղբյուր Սերոբ"
    },
    "source": "openstreetmap",
    "image_url": null
  },
  {
    "id": "node/6414640626",
    "name_en": "Սոսե մայրիկ",
    "name_ru": "Սոսե մայրիկ",
    "name": "Սոսե մայրիկ",
    "lat": 40.7813635,
    "lon": 43.8447242,
    "category": "historic_architecture",
    "tags": {
      "historic": "monument",
      "name": "Սոսե մայրիկ"
    },
    "source": "openstreetmap",
    "image_url": null
  },
  {
    "id": "node/6421524693",
    "name_en": "Anusharan",
    "name_ru": "Անուշարան",
    "name": "Անուշարան",
    "lat": 40.7916811,
    "lon": 43.8465406,
    "category": "food",
    "tags": {
      "amenity": "restaurant",
      "name": "Անուշարան",
      "name:en": "Anusharan"
    },
    "source": "openstreetmap",
    "image_url": null
  },
  {
    "id": "node/6421524694",
    "name_en": "Amigo",
    "name_ru": "Amigo",
    "name": "Amigo",
    "lat": 40.7890925,
    "lon": 43.84624,
    "category": "food",
    "tags": {
      "addr:city": "Գյումրի",
      "addr:country": "AM",
      "addr:street": "Սայաթ-Նովայի պողոտա",
      "amenity": "pub",
      "name": "Amigo"
    },
    "source": "openstreetmap",
    "image_url": null
  },
  {
    "id": "node/6421532108",
    "name_en": "Shirak Regional Museum",
    "name_ru": "Краеведческий музей Ширака",
    "name": "Շիրակի երկրագիտական թանգարան",
    "lat": 40.7868291,
    "lon": 43.8378872,
    "category": "sight",
    "tags": {
      "name": "Շիրակի երկրագիտական թանգարան",
      "name:en": "Shirak Regional Museum",
      "name:hy": "Շիրակի երկրագիտական թանգարան",
      "name:ru": "Краеведческий музей Ширака",
      "phone": "+374 312 5 28 47,+374 312 5 01 34,+374 93 38 30 98",
      "tourism": "museum"
    },
    "source": "openstreetmap",
    "image_url": null
  },
  {
    "id": "node/6423912261",
    "name_en": "Artyom Mesropi Petrosyan",
    "name_ru": "Unknown",
    "name": "Unknown",
    "lat": 40.7868576,
    "lon": 43.8532712,
    "category": "historic_architecture",
    "tags": {
      "historic": "monument",
      "name:en": "Artyom Mesropi Petrosyan"
    },
    "source": "openstreetmap",
    "image_url": null
  },
  {
    "id": "node/6424978387",
    "name_en": "Pizza jazz",
    "name_ru": "Pizza jazz",
    "name": "Pizza jazz",
    "lat": 40.7868698,
    "lon": 43.8444078,
    "category": "food",
    "tags": {
      "amenity": "cafe",
      "image": "https://i.imgur.com/6q7BBN9.jpg",
      "name": "Pizza jazz"
    },
    "source": "openstreetmap",
    "image_url": "https://i.imgur.com/6q7BBN9.jpg"
  },
  {
    "id": "node/6425097659",
    "name_en": "Քըրք Քըրքորյան",
    "name_ru": "Քըրք Քըրքորյան",
    "name": "Քըրք Քըրքորյան",
    "lat": 40.7861885,
    "lon": 43.8411005,
    "category": "historic_architecture",
    "tags": {
      "historic": "monument",
      "name": "Քըրք Քըրքորյան"
    },
    "source": "openstreetmap",
    "image_url": null
  },
  {
    "id": "node/6425097660",
    "name_en": "Aregak",
    "name_ru": "Арегак",
    "name": "Արեգակ",
    "lat": 40.7861588,
    "lon": 43.8409795,
    "category": "food",
    "tags": {
      "addr:city": "Գյումրի",
      "addr:country": "AM",
      "addr:street": "Աբովյան փողոց",
      "amenity": "cafe",
      "contact:facebook": "https://www.facebook.com/AregakBakery/",
      "contact:phone": "+374 98 441088",
      "indoor_seating": "yes",
      "name": "Արեգակ",
      "name:en": "Aregak",
      "name:hy": "Արեգակ",
      "name:ru": "Арегак",
      "opening_hours": "09:00-21:00",
      "outdoor_seating": "yes"
    },
    "source": "openstreetmap",
    "image_url": null
  },
  {
    "id": "node/6425137820",
    "name_en": "Little Sweets",
    "name_ru": "Little Sweets",
    "name": "Little Sweets",
    "lat": 40.7839709,
    "lon": 43.8447784,
    "category": "food",
    "tags": {
      "amenity": "cafe",
      "name": "Little Sweets"
    },
    "source": "openstreetmap",
    "image_url": null
  },
  {
    "id": "node/6428297655",
    "name_en": "Unknown",
    "name_ru": "Unknown",
    "name": "Unknown",
    "lat": 40.7851415,
    "lon": 43.8351949,
    "category": "historic_architecture",
    "tags": {
      "historic": "memorial"
    },
    "source": "openstreetmap",
    "image_url": null
  },
  {
    "id": "node/6428382775",
    "name_en": "Unknown",
    "name_ru": "Холм чести",
    "name": "Unknown",
    "lat": 40.7813114,
    "lon": 43.8356358,
    "category": "historic_architecture",
    "tags": {
      "description:ru": "Воинское кладбище с часовней св. Архистратига Михаила. Согласно различным данным, здесь покоятся от 156 до 240 офицеров русской армии, погибших в ходе русско-турецких войн в 1853—1856 и 1877—1878 годах.",
      "historic": "monument",
      "memorial:conflict": "Russo-Turkish_War",
      "memorial:conflict:wikidata": "Q174205",
      "name:ru": "Холм чести",
      "wikidata": "Q4499147",
      "wikipedia": "hy:Պատվո բլուր"
    },
    "source": "openstreetmap",
    "image_url": "https://upload.wikimedia.org/wikipedia/commons/thumb/6/6b/-_2024_1_%D0%A5%D0%BE%D0%BB%D0%BC_%D1%87%D0%B5%D1%81%D1%82%D0%B8.gif/960px--_2024_1_%D0%A5%D0%BE%D0%BB%D0%BC_%D1%87%D0%B5%D1%81%D1%82%D0%B8.gif"
  },
  {
    "id": "node/6428408710",
    "name_en": "Unknown",
    "name_ru": "Unknown",
    "name": "Unknown",
    "lat": 40.7818901,
    "lon": 43.8413099,
    "category": "historic_architecture",
    "tags": {
      "historic": "ruins"
    },
    "source": "openstreetmap",
    "image_url": null
  },
  {
    "id": "node/6430961453",
    "name_en": "Tumanyan Shaurma",
    "name_ru": "Tumanyan Shaurma",
    "name": "Tumanyan Shaurma",
    "lat": 40.7869392,
    "lon": 43.8482612,
    "category": "food",
    "tags": {
      "amenity": "cafe",
      "name": "Tumanyan Shaurma",
      "opening_hours": "Mo-Su 09:00-24:00"
    },
    "source": "openstreetmap",
    "image_url": null
  },
  {
    "id": "node/6517542286",
    "name_en": "Unknown",
    "name_ru": "Unknown",
    "name": "Unknown",
    "lat": 40.7854997,
    "lon": 43.835819,
    "category": "sight",
    "tags": {
      "name:fr": "Fête foraine",
      "tourism": "attraction"
    },
    "source": "openstreetmap",
    "image_url": null
  },
  {
    "id": "node/6911956526",
    "name_en": "I Love Gyumri",
    "name_ru": "I Love Gyumri",
    "name": "I Love Gyumri",
    "lat": 40.7874627,
    "lon": 43.8456744,
    "category": "sight",
    "tags": {
      "name": "I Love Gyumri",
      "tourism": "attraction"
    },
    "source": "openstreetmap",
    "image_url": null
  },
  {
    "id": "node/6911956528",
    "name_en": "Gurdjieff Tavern",
    "name_ru": "Gurdjieff Tavern",
    "name": "Gurdjieff Tavern",
    "lat": 40.7889223,
    "lon": 43.8410087,
    "category": "food",
    "tags": {
      "amenity": "pub",
      "name": "Gurdjieff Tavern"
    },
    "source": "openstreetmap",
    "image_url": null
  },
  {
    "id": "node/6911956529",
    "name_en": "Ազգային խոհանոցի սրճարան \"Չիչխան\"/ Кафе национальной кухни «Чичхан» / National Cuisine Cafe \"Chichkhan\"",
    "name_ru": "Чичхан",
    "name": "Ազգային խոհանոցի սրճարան \"Չիչխան\"/ Кафе национальной кухни «Чичхан» / National Cuisine Cafe \"Chichkhan\"",
    "lat": 40.7863991,
    "lon": 43.8386927,
    "category": "food",
    "tags": {
      "addr:housenumber": "2",
      "addr:street": "Գայի փողոց",
      "amenity": "pub",
      "contact:facebook": "share/1BkCJ1xW5n",
      "contact:instagram": "chichkhan_gyumri",
      "cuisine": "local",
      "internet_access": "wlan",
      "level": "1",
      "name": "Ազգային խոհանոցի սրճարան \"Չիչխան\"/ Кафе национальной кухни «Чичхан» / National Cuisine Cafe \"Chichkhan\"",
      "name:ru": "Чичхан",
      "opening_hours": "Mo-Su 10:00-23:00",
      "outdoor_seating": "yes",
      "phone": "+374 33 668998"
    },
    "source": "openstreetmap",
    "image_url": null
  },
  {
    "id": "node/7041935955",
    "name_en": "Shara",
    "name_ru": "Shara",
    "name": "Shara",
    "lat": 40.802732,
    "lon": 43.8484053,
    "category": "food",
    "tags": {
      "addr:city": "Գյումրի",
      "addr:country": "AM",
      "addr:housenumber": "1/5",
      "addr:postcode": "3103",
      "addr:street": "Գարեգին Նժդեհի պողոտա",
      "amenity": "restaurant",
      "facebook": "https://www.facebook.com/sharagyumri/",
      "image": "https://i.imgur.com/yYbxSyY.jpg",
      "name": "Shara",
      "opening_hours": "Mo-Su 10:00-23:00",
      "phone": "+374 312 3 55 63"
    },
    "source": "openstreetmap",
    "image_url": "https://i.imgur.com/yYbxSyY.jpg"
  },
  {
    "id": "node/7191402485",
    "name_en": "Unknown",
    "name_ru": "Пончик-Мончик",
    "name": "Unknown",
    "lat": 40.7900954,
    "lon": 43.8464132,
    "category": "food",
    "tags": {
      "amenity": "cafe",
      "name:ru": "Пончик-Мончик"
    },
    "source": "openstreetmap",
    "image_url": null
  },
  {
    "id": "node/8252140223",
    "name_en": "Inferis",
    "name_ru": "Inferis",
    "name": "Inferis",
    "lat": 40.7969281,
    "lon": 43.8534647,
    "category": "food",
    "tags": {
      "addr:city": "Գյումրի",
      "addr:country": "AM",
      "addr:housenumber": "46/3",
      "addr:postcode": "3101",
      "addr:street": "Խրիմյան Հայրիկ խճուղի",
      "amenity": "restaurant",
      "name": "Inferis",
      "opening_hours": "24/7",
      "phone": "+37494000195"
    },
    "source": "openstreetmap",
    "image_url": null
  },
  {
    "id": "node/8850868717",
    "name_en": "Nash dvor",
    "name_ru": "Наш двор",
    "name": "Նաշ դվոռ",
    "lat": 40.802022,
    "lon": 43.8511788,
    "category": "food",
    "tags": {
      "addr:street": "Շարա Տալյան փողոց",
      "amenity": "restaurant",
      "internet_access": "wlan",
      "name": "Նաշ դվոռ",
      "name:en": "Nash dvor",
      "name:ru": "Наш двор"
    },
    "source": "openstreetmap",
    "image_url": null
  },
  {
    "id": "node/8869829318",
    "name_en": "Cherkezi Dzor",
    "name_ru": "Unknown",
    "name": "Unknown",
    "lat": 40.7978503,
    "lon": 43.8277107,
    "category": "food",
    "tags": {
      "amenity": "restaurant",
      "name:en": "Cherkezi Dzor"
    },
    "source": "openstreetmap",
    "image_url": null
  },
  {
    "id": "node/8901697317",
    "name_en": "Gyumri Garden house (GGH)",
    "name_ru": "Gyumri Garden house (GGH)",
    "name": "Gyumri Garden house (GGH)",
    "lat": 40.7872764,
    "lon": 43.8407193,
    "category": "food",
    "tags": {
      "addr:street": "Աբովյան փողոց",
      "amenity": "bar",
      "internet_access": "wlan",
      "name": "Gyumri Garden house (GGH)",
      "name:en": "Gyumri Garden house (GGH)",
      "name:fr": "Gyumri Garden house (GGH)",
      "name:hy": "Gyumri Garden house (GGH)"
    },
    "source": "openstreetmap",
    "image_url": null
  },
  {
    "id": "node/9010413117",
    "name_en": "Unknown",
    "name_ru": "Unknown",
    "name": "Unknown",
    "lat": 40.7843671,
    "lon": 43.8306056,
    "category": "historic_architecture",
    "tags": {
      "historic": "memorial",
      "memorial": "war_memorial"
    },
    "source": "openstreetmap",
    "image_url": null
  },
  {
    "id": "node/9088108619",
    "name_en": "Basturma shop & grill bar",
    "name_ru": "Unknown",
    "name": "Unknown",
    "lat": 40.7890399,
    "lon": 43.8407226,
    "category": "food",
    "tags": {
      "amenity": "restaurant",
      "cuisine": "burger;european;breakfast",
      "internet_access": "wlan",
      "internet_access:fee": "customers",
      "name:en": "Basturma shop & grill bar",
      "power_supply": "yes",
      "socket:schuko": "10"
    },
    "source": "openstreetmap",
    "image_url": null
  },
  {
    "id": "node/9088112017",
    "name_en": "Merhatsy",
    "name_ru": "Merhatsy",
    "name": "Merhatsy",
    "lat": 40.7874791,
    "lon": 43.8382908,
    "category": "food",
    "tags": {
      "air_conditioning": "no",
      "amenity": "restaurant",
      "cuisine": "lebanese",
      "diet:vegan": "yes",
      "diet:vegetarian": "yes",
      "indoor_seating": "yes",
      "name": "Merhatsy",
      "name:en": "Merhatsy",
      "opening_hours": "Mo-Fr 10:30-21:30; Sa,Su 10:00-21:30",
      "outdoor_seating": "yes",
      "payment:credit_cards": "yes",
      "payment:debit_cards": "yes",
      "phone": "+37444200301",
      "smoking": "no"
    },
    "source": "openstreetmap",
    "image_url": null
  },
  {
    "id": "node/9088112018",
    "name_en": "Chill & cocktail bar",
    "name_ru": "Unknown",
    "name": "Unknown",
    "lat": 40.7874115,
    "lon": 43.8402788,
    "category": "food",
    "tags": {
      "amenity": "bar",
      "name:en": "Chill & cocktail bar"
    },
    "source": "openstreetmap",
    "image_url": null
  },
  {
    "id": "node/9089016319",
    "name_en": "Ani",
    "name_ru": "Ani",
    "name": "Ani",
    "lat": 40.787253,
    "lon": 43.8413549,
    "category": "food",
    "tags": {
      "amenity": "restaurant",
      "name": "Ani"
    },
    "source": "openstreetmap",
    "image_url": null
  },
  {
    "id": "node/9726162734",
    "name_en": "Unknown",
    "name_ru": "Unknown",
    "name": "Unknown",
    "lat": 40.7819733,
    "lon": 43.825035,
    "category": "sight",
    "tags": {
      "tourism": "viewpoint"
    },
    "source": "openstreetmap",
    "image_url": null
  },
  {
    "id": "node/9726162739",
    "name_en": "Eternal Flame",
    "name_ru": "Вечный Огонь",
    "name": "Անմար կրակի",
    "lat": 40.7807761,
    "lon": 43.825163,
    "category": "historic_architecture",
    "tags": {
      "historic": "memorial",
      "memorial": "eternal_flame",
      "name": "Անմար կրակի",
      "name:en": "Eternal Flame",
      "name:hy": "Անմար կրակի",
      "name:ru": "Вечный Огонь",
      "war_memorial": "yes"
    },
    "source": "openstreetmap",
    "image_url": null
  },
  {
    "id": "node/9726162751",
    "name_en": "Unknown",
    "name_ru": "Unknown",
    "name": "Unknown",
    "lat": 40.7892311,
    "lon": 43.8385389,
    "category": "historic_architecture",
    "tags": {
      "historic": "memorial",
      "name:hy": "Սիրեմգը"
    },
    "source": "openstreetmap",
    "image_url": null
  },
  {
    "id": "node/10575730542",
    "name_en": "Ktor M tavern",
    "name_ru": "Ктор М таверна",
    "name": "Կտոր Մը պանդոկ",
    "lat": 40.7858317,
    "lon": 43.8404582,
    "category": "food",
    "tags": {
      "addr:housenumber": "14",
      "addr:street": "Գայի փողոց",
      "amenity": "restaurant",
      "check_date": "2026-02-09",
      "contact:email": "ktormgyumri@gmail.com",
      "contact:phone": "+37477895008",
      "contact:website": "https://www.facebook.com/ktormGyumri/",
      "image": "https://commons.wikimedia.org/wiki/File:Ktor_m_gyumri_09.02.2026.jpg",
      "internet_access": "wlan",
      "level": "-1",
      "name": "Կտոր Մը պանդոկ",
      "name:en": "Ktor M tavern",
      "name:ru": "Ктор М таверна",
      "opening_hours": "Mo-Su 10:00-22:00"
    },
    "source": "openstreetmap",
    "image_url": "https://commons.wikimedia.org/wiki/File:Ktor_m_gyumri_09.02.2026.jpg"
  },
  {
    "id": "node/10799373305",
    "name_en": "Rasputin",
    "name_ru": "Rasputin",
    "name": "Rasputin",
    "lat": 40.786076,
    "lon": 43.8398205,
    "category": "food",
    "tags": {
      "amenity": "bar",
      "image": "https://i.imgur.com/lqe6nTq.png",
      "indoor_seating": "yes",
      "internet_access": "wlan",
      "name": "Rasputin",
      "outdoor_seating": "yes",
      "phone": "+37477616619",
      "website": "https://gyumri.bar"
    },
    "source": "openstreetmap",
    "image_url": "https://i.imgur.com/lqe6nTq.png"
  },
  {
    "id": "node/10875188805",
    "name_en": "Varem Marem Art Studio and Coffee",
    "name_ru": "Unknown",
    "name": "Unknown",
    "lat": 40.7853062,
    "lon": 43.8370374,
    "category": "sight",
    "tags": {
      "name:en": "Varem Marem Art Studio and Coffee",
      "tourism": "gallery"
    },
    "source": "openstreetmap",
    "image_url": null
  },
  {
    "id": "node/10875753006",
    "name_en": "Old pedestrian street",
    "name_ru": "Unknown",
    "name": "Unknown",
    "lat": 40.7868206,
    "lon": 43.8411304,
    "category": "sight",
    "tags": {
      "addr:street": "Աբովյան փողոց",
      "name:en": "Old pedestrian street",
      "tourism": "attraction"
    },
    "source": "openstreetmap",
    "image_url": null
  },
  {
    "id": "node/10875753506",
    "name_en": "Old restored inner plaza",
    "name_ru": "Unknown",
    "name": "Unknown",
    "lat": 40.7872975,
    "lon": 43.8407766,
    "category": "sight",
    "tags": {
      "addr:street": "Աբովյան փողոց",
      "name:en": "Old restored inner plaza",
      "tourism": "attraction"
    },
    "source": "openstreetmap",
    "image_url": null
  },
  {
    "id": "node/10882960005",
    "name_en": "Old factory building complex",
    "name_ru": "Unknown",
    "name": "Unknown",
    "lat": 40.7964433,
    "lon": 43.8494786,
    "category": "sight",
    "tags": {
      "name:en": "Old factory building complex",
      "tourism": "attraction"
    },
    "source": "openstreetmap",
    "image_url": null
  },
  {
    "id": "node/10883895107",
    "name_en": "GWOOG Gastro House",
    "name_ru": "Unknown",
    "name": "Unknown",
    "lat": 40.7904636,
    "lon": 43.8525743,
    "category": "food",
    "tags": {
      "amenity": "restaurant",
      "name:en": "GWOOG Gastro House"
    },
    "source": "openstreetmap",
    "image_url": null
  },
  {
    "id": "node/10923726998",
    "name_en": "Tetra bar",
    "name_ru": "Tetra bar",
    "name": "Tetra bar",
    "lat": 40.7889965,
    "lon": 43.8422588,
    "category": "food",
    "tags": {
      "addr:city": "Գյումրի",
      "addr:country": "AM",
      "addr:housenumber": "39",
      "addr:street": "Ռուսթավելի փողոց",
      "amenity": "bar",
      "name": "Tetra bar"
    },
    "source": "openstreetmap",
    "image_url": null
  },
  {
    "id": "node/10963791660",
    "name_en": "Unknown",
    "name_ru": "Танк-паровоз № 9774",
    "name": "Unknown",
    "lat": 40.7880507,
    "lon": 43.8591345,
    "category": "historic_architecture",
    "tags": {
      "historic": "locomotive",
      "name:ru": "Танк-паровоз № 9774"
    },
    "source": "openstreetmap",
    "image_url": null
  },
  {
    "id": "node/11110019005",
    "name_en": "Unknown",
    "name_ru": "Unknown",
    "name": "Unknown",
    "lat": 40.7875529,
    "lon": 43.8387496,
    "category": "food",
    "tags": {
      "amenity": "fast_food"
    },
    "source": "openstreetmap",
    "image_url": null
  },
  {
    "id": "node/11110019006",
    "name_en": "Ponchik Monchik",
    "name_ru": "Unknown",
    "name": "Unknown",
    "lat": 40.7855249,
    "lon": 43.840929,
    "category": "food",
    "tags": {
      "amenity": "cafe",
      "cuisine": "burger;breakfast",
      "internet_access": "wlan",
      "internet_access:fee": "no",
      "name:en": "Ponchik Monchik",
      "outdoor_seating": "yes",
      "power_supply": "yes",
      "socket:schuko": "20"
    },
    "source": "openstreetmap",
    "image_url": null
  },
  {
    "id": "node/11112330605",
    "name_en": "Shaurmix",
    "name_ru": "Шаурмикс",
    "name": "Shaurmix",
    "lat": 40.7875356,
    "lon": 43.8387606,
    "category": "food",
    "tags": {
      "amenity": "fast_food",
      "name": "Shaurmix",
      "name:ru": "Шаурмикс"
    },
    "source": "openstreetmap",
    "image_url": null
  },
  {
    "id": "node/11208469038",
    "name_en": "Кумкума",
    "name_ru": "Кумкума",
    "name": "Кумкума",
    "lat": 40.7941817,
    "lon": 43.8456061,
    "category": "food",
    "tags": {
      "amenity": "restaurant",
      "name": "Кумкума"
    },
    "source": "openstreetmap",
    "image_url": null
  },
  {
    "id": "node/11228704801",
    "name_en": "maki sushi",
    "name_ru": "маки суши",
    "name": "maki sushi",
    "lat": 40.8019353,
    "lon": 43.8341033,
    "category": "food",
    "tags": {
      "amenity": "restaurant",
      "cuisine": "asian",
      "image": "https://i.imgur.com/47oqjQw.jpg",
      "name": "maki sushi",
      "name:en": "maki sushi",
      "name:ru": "маки суши",
      "phone": "+374 93 99 11 39, +374 55 99 11 39"
    },
    "source": "openstreetmap",
    "image_url": "https://i.imgur.com/47oqjQw.jpg"
  },
  {
    "id": "node/11288119200",
    "name_en": "meat & beat",
    "name_ru": "meat & beat",
    "name": "meat & beat",
    "lat": 40.7871845,
    "lon": 43.8584872,
    "category": "food",
    "tags": {
      "amenity": "fast_food",
      "check_date": "2026-02-26",
      "contact:phone": "+374 44 65 65 55",
      "contact:website": "https://mrbyte.am/Meat_&_Beat/menu/19",
      "cuisine": "kebab;regional;burger;shwarma",
      "image": "https://commons.wikimedia.org/wiki/File:Meat_and_beat_gyumri_16.07.2025.jpg",
      "name": "meat & beat",
      "name:en": "meat & beat",
      "opening_hours": "Mo-Su 10:00-23:00"
    },
    "source": "openstreetmap",
    "image_url": "https://commons.wikimedia.org/wiki/File:Meat_and_beat_gyumri_16.07.2025.jpg"
  },
  {
    "id": "node/11340886369",
    "name_en": "shaurmania",
    "name_ru": "Шаурмания",
    "name": "shaurmania",
    "lat": 40.8022389,
    "lon": 43.8472705,
    "category": "food",
    "tags": {
      "amenity": "fast_food",
      "cuisine": "hot_dog;kebab",
      "image": "https://i.imgur.com/uM3KeGG.jpg",
      "indoor_seating": "yes",
      "name": "shaurmania",
      "name:en": "shaurmania",
      "name:ru": "Шаурмания",
      "opening_hours": "Mo-Su 09:00-23:00",
      "outdoor_seating": "no"
    },
    "source": "openstreetmap",
    "image_url": "https://i.imgur.com/uM3KeGG.jpg"
  },
  {
    "id": "node/11343561722",
    "name_en": "tokyo",
    "name_ru": "tokyo",
    "name": "tokyo",
    "lat": 40.7870305,
    "lon": 43.851149,
    "category": "food",
    "tags": {
      "amenity": "restaurant",
      "cuisine": "asian",
      "image": "https://i.imgur.com/mZsoELh.jpg",
      "name": "tokyo",
      "name:en": "tokyo",
      "website": "https://www.instagram.com/tokyo_gyumri"
    },
    "source": "openstreetmap",
    "image_url": "https://i.imgur.com/mZsoELh.jpg"
  },
  {
    "id": "node/11518588670",
    "name_en": "Անի",
    "name_ru": "Անի",
    "name": "Անի",
    "lat": 40.7872429,
    "lon": 43.841173,
    "category": "food",
    "tags": {
      "addr:street": "Աբովյան փողոց",
      "amenity": "restaurant",
      "name": "Անի"
    },
    "source": "openstreetmap",
    "image_url": null
  },
  {
    "id": "node/11518597869",
    "name_en": "Անի",
    "name_ru": "Անի",
    "name": "Անի",
    "lat": 40.78725,
    "lon": 43.8411633,
    "category": "food",
    "tags": {
      "addr:street": "Աբովյան փողոց",
      "amenity": "restaurant",
      "name": "Անի"
    },
    "source": "openstreetmap",
    "image_url": null
  },
  {
    "id": "node/11778821052",
    "name_en": "gyros original",
    "name_ru": "gyros original",
    "name": "gyros original",
    "lat": 40.8069841,
    "lon": 43.8409412,
    "category": "food",
    "tags": {
      "amenity": "fast_food",
      "cuisine": "gyros;kebab",
      "image": "https://i.imgur.com/BJ1ikd4.jpg",
      "name": "gyros original",
      "phone": "+374 94 52 12 84"
    },
    "source": "openstreetmap",
    "image_url": "https://i.imgur.com/BJ1ikd4.jpg"
  },
  {
    "id": "node/11778952349",
    "name_en": "KFC",
    "name_ru": "Кей Эф Си",
    "name": "KFC",
    "lat": 40.7898853,
    "lon": 43.8463382,
    "category": "food",
    "tags": {
      "addr:city": "Երևան",
      "addr:country": "AM",
      "air_conditioning": "yes",
      "alt_name": "Kentucky Fried Chicken",
      "amenity": "fast_food",
      "brand": "KFC",
      "brand:wikidata": "Q524757",
      "brand:wikipedia": "en:KFC",
      "cuisine": "chicken",
      "facebook": "https://www.facebook.com/KFC.Armenia",
      "image": "https://i.imgur.com/SBschle.jpg",
      "indoor_seating": "yes",
      "name": "KFC",
      "name:hy": "Քեյ Էֆ Սի",
      "name:ru": "Кей Эф Си",
      "opening_hours": "Mo-Su 10:00-23:00",
      "outdoor_seating": "no",
      "smoking": "no",
      "takeaway": "yes",
      "toilets": "yes",
      "toilets:access": "permissive",
      "website": "https://www.kfc-armenia.com/",
      "wheelchair": "no"
    },
    "source": "openstreetmap",
    "image_url": "https://i.imgur.com/SBschle.jpg"
  },
  {
    "id": "node/11778958373",
    "name_en": "mrs gyros",
    "name_ru": "миссис гирос",
    "name": "mrs gyros",
    "lat": 40.7875042,
    "lon": 43.8399588,
    "category": "food",
    "tags": {
      "amenity": "fast_food",
      "image": "https://i.imgur.com/KbxZ7sF.jpg",
      "name": "mrs gyros",
      "name:en": "mrs gyros",
      "name:ru": "миссис гирос",
      "phone": "+374 77 25 06 03"
    },
    "source": "openstreetmap",
    "image_url": "https://i.imgur.com/KbxZ7sF.jpg"
  },
  {
    "id": "node/11783459406",
    "name_en": "Cobweb art gallery of Andranik Avetisyan",
    "name_ru": "Галерея паутинного исскуства Андраника Аветисяна",
    "name": "Անդրանիկ Ավետիսյանի սարդոստայն արվեստի սատկերասրահ",
    "lat": 40.7928146,
    "lon": 43.8375078,
    "category": "sight",
    "tags": {
      "fee": "yes",
      "name": "Անդրանիկ Ավետիսյանի սարդոստայն արվեստի սատկերասրահ",
      "name:en": "Cobweb art gallery of Andranik Avetisyan",
      "name:ru": "Галерея паутинного исскуства Андраника Аветисяна",
      "tourism": "gallery"
    },
    "source": "openstreetmap",
    "image_url": null
  },
  {
    "id": "node/11783459407",
    "name_en": "Coffee house",
    "name_ru": "Coffee house",
    "name": "Coffee house",
    "lat": 40.787797,
    "lon": 43.8448196,
    "category": "food",
    "tags": {
      "amenity": "cafe",
      "brand": "coffee house",
      "cuisine": "coffee_shop",
      "indoor_seating": "no",
      "name": "Coffee house",
      "outdoor_seating": "no",
      "takeaway": "only"
    },
    "source": "openstreetmap",
    "image_url": null
  },
  {
    "id": "node/11783459408",
    "name_en": "Gyumri express",
    "name_ru": "Գյումրի էքսպրեսս",
    "name": "Գյումրի էքսպրեսս",
    "lat": 40.7876496,
    "lon": 43.840394,
    "category": "food",
    "tags": {
      "amenity": "restaurant",
      "name": "Գյումրի էքսպրեսս",
      "name:en": "Gyumri express"
    },
    "source": "openstreetmap",
    "image_url": null
  },
  {
    "id": "node/12023279175",
    "name_en": "Unknown",
    "name_ru": "Unknown",
    "name": "Unknown",
    "lat": 40.7805568,
    "lon": 43.8284555,
    "category": "historic_architecture",
    "tags": {
      "historic": "memorial",
      "memorial": "statue"
    },
    "source": "openstreetmap",
    "image_url": null
  },
  {
    "id": "node/12023279187",
    "name_en": "Unknown",
    "name_ru": "Unknown",
    "name": "Unknown",
    "lat": 40.7914004,
    "lon": 43.8601933,
    "category": "food",
    "tags": {
      "amenity": "fast_food"
    },
    "source": "openstreetmap",
    "image_url": null
  },
  {
    "id": "node/12023279220",
    "name_en": "Unknown",
    "name_ru": "Unknown",
    "name": "Unknown",
    "lat": 40.7918268,
    "lon": 43.8611716,
    "category": "sight",
    "tags": {
      "disused:man_made": "water_tower",
      "historic": "yes",
      "tourism": "attraction"
    },
    "source": "openstreetmap",
    "image_url": null
  },
  {
    "id": "node/12023279233",
    "name_en": "M & S",
    "name_ru": "M & S",
    "name": "M & S",
    "lat": 40.8028321,
    "lon": 43.8474266,
    "category": "food",
    "tags": {
      "amenity": "fast_food",
      "check_date:opening_hours": "2024-12-04",
      "cuisine": "kebab",
      "delivery": "yes",
      "name": "M & S",
      "opening_hours:signed": "no",
      "phone": "+374 94 646363"
    },
    "source": "openstreetmap",
    "image_url": null
  },
  {
    "id": "node/12083600132",
    "name_en": "Dodo Pizza",
    "name_ru": "Додо Пицца",
    "name": "Դոդո Պիցցա",
    "lat": 40.7872188,
    "lon": 43.8448494,
    "category": "food",
    "tags": {
      "amenity": "fast_food",
      "cuisine": "pizza",
      "delivery": "yes",
      "level": "1",
      "name": "Դոդո Պիցցա",
      "name:en": "Dodo Pizza",
      "name:hy": "Դոդո Պիցցա",
      "name:ru": "Додо Пицца",
      "opening_hours": "Mo-Th 10:00-23:00; Fr-Sa 10:00-00:00; Su 10:00-23:00",
      "takeaway": "yes",
      "website": "https://dodopizza.am/"
    },
    "source": "openstreetmap",
    "image_url": null
  },
  {
    "id": "node/12259245048",
    "name_en": "Unknown",
    "name_ru": "Unknown",
    "name": "Unknown",
    "lat": 40.801318,
    "lon": 43.8343629,
    "category": "historic_architecture",
    "tags": {
      "historic": "memorial",
      "memorial": "stele",
      "stele": "khachkar"
    },
    "source": "openstreetmap",
    "image_url": null
  },
  {
    "id": "node/12259245050",
    "name_en": "Unknown",
    "name_ru": "Unknown",
    "name": "Unknown",
    "lat": 40.8008363,
    "lon": 43.8345178,
    "category": "historic_architecture",
    "tags": {
      "historic": "memorial",
      "memorial": "stele",
      "stele": "khachkar"
    },
    "source": "openstreetmap",
    "image_url": null
  },
  {
    "id": "node/12259245061",
    "name_en": "Unknown",
    "name_ru": "Unknown",
    "name": "Unknown",
    "lat": 40.7848587,
    "lon": 43.8362123,
    "category": "historic_architecture",
    "tags": {
      "historic": "memorial",
      "memorial": "bust"
    },
    "source": "openstreetmap",
    "image_url": null
  },
  {
    "id": "node/12259245066",
    "name_en": "Vahan Cheraz",
    "name_ru": "Վահան Չերազ",
    "name": "Վահան Չերազ",
    "lat": 40.784397,
    "lon": 43.8406373,
    "category": "historic_architecture",
    "tags": {
      "historic": "memorial",
      "memorial": "statue",
      "name": "Վահան Չերազ",
      "name:en": "Vahan Cheraz",
      "wikidata": "Q56012093"
    },
    "source": "openstreetmap",
    "image_url": "https://upload.wikimedia.org/wikipedia/commons/d/de/Monument_to_Vahan_Cheraz_%283%29.jpg"
  },
  {
    "id": "node/12259287795",
    "name_en": "Unknown",
    "name_ru": "Unknown",
    "name": "Unknown",
    "lat": 40.7990774,
    "lon": 43.84456,
    "category": "food",
    "tags": {
      "amenity": "restaurant"
    },
    "source": "openstreetmap",
    "image_url": null
  },
  {
    "id": "node/12649684101",
    "name_en": "Тух Манук",
    "name_ru": "Тух Манук",
    "name": "Тух Манук",
    "lat": 40.7993966,
    "lon": 43.8599605,
    "category": "historic_architecture",
    "tags": {
      "historic": "wayside_cross",
      "name": "Тух Манук"
    },
    "source": "openstreetmap",
    "image_url": null
  },
  {
    "id": "node/12649684201",
    "name_en": "Тух Манук",
    "name_ru": "Тух Манук",
    "name": "Тух Манук",
    "lat": 40.8008689,
    "lon": 43.8643328,
    "category": "historic_architecture",
    "tags": {
      "historic": "wayside_cross",
      "name": "Тух Манук"
    },
    "source": "openstreetmap",
    "image_url": null
  },
  {
    "id": "node/12812274201",
    "name_en": "Unknown",
    "name_ru": "Unknown",
    "name": "Unknown",
    "lat": 40.7894964,
    "lon": 43.8456188,
    "category": "historic_architecture",
    "tags": {
      "historic": "memorial"
    },
    "source": "openstreetmap",
    "image_url": null
  },
  {
    "id": "node/12895535301",
    "name_en": "Miro",
    "name_ru": "Miro",
    "name": "Miro",
    "lat": 40.7890734,
    "lon": 43.8406638,
    "category": "food",
    "tags": {
      "addr:housenumber": "29/1",
      "addr:street": "Rustaveli Street",
      "amenity": "restaurant",
      "name": "Miro",
      "opening_hours": "Mo-Su 10:00-00:00"
    },
    "source": "openstreetmap",
    "image_url": null
  },
  {
    "id": "node/12895623401",
    "name_en": "Unknown",
    "name_ru": "Unknown",
    "name": "Unknown",
    "lat": 40.7898397,
    "lon": 43.8401783,
    "category": "historic_architecture",
    "tags": {
      "addr:housenumber": "188",
      "addr:street": "Ghorghanayn Street",
      "historic": "memorial"
    },
    "source": "openstreetmap",
    "image_url": null
  },
  {
    "id": "node/12896300802",
    "name_en": "Unknown",
    "name_ru": "Unknown",
    "name": "Unknown",
    "lat": 40.7859874,
    "lon": 43.8420629,
    "category": "historic_architecture",
    "tags": {
      "historic": "memorial"
    },
    "source": "openstreetmap",
    "image_url": null
  },
  {
    "id": "node/12896457901",
    "name_en": "Unknown",
    "name_ru": "Unknown",
    "name": "Unknown",
    "lat": 40.7863269,
    "lon": 43.8370932,
    "category": "historic_architecture",
    "tags": {
      "historic": "memorial"
    },
    "source": "openstreetmap",
    "image_url": null
  },
  {
    "id": "node/12896458001",
    "name_en": "Unknown",
    "name_ru": "Unknown",
    "name": "Unknown",
    "lat": 40.786111,
    "lon": 43.8367397,
    "category": "historic_architecture",
    "tags": {
      "historic": "memorial"
    },
    "source": "openstreetmap",
    "image_url": null
  },
  {
    "id": "node/12896458101",
    "name_en": "Pushkin",
    "name_ru": "Unknown",
    "name": "Unknown",
    "lat": 40.7862787,
    "lon": 43.8364758,
    "category": "historic_architecture",
    "tags": {
      "historic": "memorial",
      "name:en": "Pushkin"
    },
    "source": "openstreetmap",
    "image_url": null
  },
  {
    "id": "node/12896491401",
    "name_en": "Yamvagon",
    "name_ru": "Unknown",
    "name": "Unknown",
    "lat": 40.7862275,
    "lon": 43.8360822,
    "category": "food",
    "tags": {
      "amenity": "fast_food",
      "cuisine": "crepe;hotdog;pancake",
      "name:en": "Yamvagon"
    },
    "source": "openstreetmap",
    "image_url": null
  },
  {
    "id": "node/12896491501",
    "name_en": "Unknown",
    "name_ru": "Unknown",
    "name": "Unknown",
    "lat": 40.7861342,
    "lon": 43.8359305,
    "category": "food",
    "tags": {
      "amenity": "fast_food"
    },
    "source": "openstreetmap",
    "image_url": null
  },
  {
    "id": "node/12896889902",
    "name_en": "Zero",
    "name_ru": "Zero",
    "name": "Zero",
    "lat": 40.7871956,
    "lon": 43.8442252,
    "category": "food",
    "tags": {
      "addr:housenumber": "2",
      "addr:street": "Rizhkov Street",
      "amenity": "restaurant",
      "cuisine": "international",
      "name": "Zero"
    },
    "source": "openstreetmap",
    "image_url": null
  },
  {
    "id": "node/12966542859",
    "name_en": "Tar-tu",
    "name_ru": "Тар-ту",
    "name": "Tar-tu",
    "lat": 40.7873868,
    "lon": 43.8472627,
    "category": "food",
    "tags": {
      "amenity": "cafe",
      "check_date": "2025-06-21",
      "cuisine": "grill;kebab",
      "image": "https://commons.wikimedia.org/wiki/File:Tar-tu_gyumri_21.06.2025.jpg",
      "internet_access": "wlan",
      "name": "Tar-tu",
      "name:ru": "Тар-ту",
      "opening_hours": "24/7"
    },
    "source": "openstreetmap",
    "image_url": "https://commons.wikimedia.org/wiki/File:Tar-tu_gyumri_21.06.2025.jpg"
  },
  {
    "id": "node/12993293579",
    "name_en": "Unknown",
    "name_ru": "Unknown",
    "name": "Unknown",
    "lat": 40.78878,
    "lon": 43.8595768,
    "category": "food",
    "tags": {
      "amenity": "pub"
    },
    "source": "openstreetmap",
    "image_url": null
  },
  {
    "id": "node/13016886644",
    "name_en": "Unknown",
    "name_ru": "Unknown",
    "name": "Unknown",
    "lat": 40.7897982,
    "lon": 43.8536339,
    "category": "historic_architecture",
    "tags": {
      "historic": "memorial",
      "image": "https://commons.wikimedia.org/wiki/File:Pulpulak_mets_1_gyumri_21.07.2025.jpg",
      "memorial": "stele"
    },
    "source": "openstreetmap",
    "image_url": "https://commons.wikimedia.org/wiki/File:Pulpulak_mets_1_gyumri_21.07.2025.jpg"
  },
  {
    "id": "node/13092080265",
    "name_en": "poleyan shaurma",
    "name_ru": "poleyan shaurma",
    "name": "poleyan shaurma",
    "lat": 40.7871645,
    "lon": 43.8505695,
    "category": "food",
    "tags": {
      "amenity": "fast_food",
      "cuisine": "shawarma;kebab",
      "diet:meat": "yes",
      "drive_through": "no",
      "image": "https://commons.wikimedia.org/wiki/File:Poleyan_shaurma_gyumri_20.08.2025.jpg",
      "name": "poleyan shaurma",
      "wheelchair": "no"
    },
    "source": "openstreetmap",
    "image_url": "https://commons.wikimedia.org/wiki/File:Poleyan_shaurma_gyumri_20.08.2025.jpg"
  },
  {
    "id": "node/13235092601",
    "name_en": "Sushi Sakura",
    "name_ru": "Sushi Sakura",
    "name": "Sushi Sakura",
    "lat": 40.7863159,
    "lon": 43.8459801,
    "category": "food",
    "tags": {
      "addr:housenumber": "3",
      "addr:street": "Haghtanak Avenue",
      "amenity": "restaurant",
      "cuisine": "sushi",
      "name": "Sushi Sakura"
    },
    "source": "openstreetmap",
    "image_url": null
  },
  {
    "id": "node/13334236236",
    "name_en": "Unknown",
    "name_ru": "Unknown",
    "name": "Unknown",
    "lat": 40.7898753,
    "lon": 43.8592425,
    "category": "historic_architecture",
    "tags": {
      "historic": "memorial",
      "image": "https://commons.wikimedia.org/wiki/File:Khachkar_pulpulak_gyumri_26.11.2025.jpg",
      "memorial": "stele",
      "stele": "khachkar"
    },
    "source": "openstreetmap",
    "image_url": "https://commons.wikimedia.org/wiki/File:Khachkar_pulpulak_gyumri_26.11.2025.jpg"
  },
  {
    "id": "node/13366508413",
    "name_en": "Unknown",
    "name_ru": "Unknown",
    "name": "Unknown",
    "lat": 40.7961437,
    "lon": 43.8465896,
    "category": "historic_architecture",
    "tags": {
      "historic": "memorial",
      "memorial": "plaque"
    },
    "source": "openstreetmap",
    "image_url": null
  },
  {
    "id": "node/13415227435",
    "name_en": "Unknown",
    "name_ru": "Unknown",
    "name": "Unknown",
    "lat": 40.786817,
    "lon": 43.8425638,
    "category": "food",
    "tags": {
      "addr:door": "1",
      "addr:housenumber": "176",
      "addr:street": "Վարպետաց փողոց",
      "amenity": "fast_food",
      "check_date": "2025-07-01",
      "cuisine": "coffee_shop",
      "operator": "Անահիտ Գառնիկի Հակոբյան",
      "operator:ref": "57586502",
      "outdoor_seating": "yes",
      "takeaway": "yes",
      "wheelchair": "limited"
    },
    "source": "openstreetmap",
    "image_url": null
  },
  {
    "id": "node/13610111756",
    "name_en": "Unknown",
    "name_ru": "Unknown",
    "name": "Unknown",
    "lat": 40.7812807,
    "lon": 43.8421085,
    "category": "food",
    "tags": {
      "amenity": "fast_food",
      "check_date": "2026-02-28",
      "image": "https://commons.wikimedia.org/wiki/File:Shaurma_24_gyumri_28.02.2026.jpg",
      "opening_hours": "24/7"
    },
    "source": "openstreetmap",
    "image_url": "https://commons.wikimedia.org/wiki/File:Shaurma_24_gyumri_28.02.2026.jpg"
  }
]